City_ID,City,Lat,Lng,Max Temp,Humidity,Cloudiness,Wind Speed,Country,Date
0,yellowknife,62.456,-114.3525,-30.33,90,0,1.03,CA,1733304977
1,iqaluit,63.7506,-68.5145,-16.15,72,100,4.12,CA,1733305181
2,san cristobal de las casas,16.75,-92.6333,7.53,85,98,3.43,MX,1733305183
3,adamstown,-25.066,-130.1015,23.22,82,100,6.58,PN,1733305184
4,daru,-9.0763,143.2092,27.83,81,97,4.78,PG,1733305185
5,nar'yan-mar,67.6713,53.087,-6.78,95,100,2.24,RU,1733305186
6,margaret river,-33.95,115.0667,17.3,60,0,5.23,AU,1733305187
7,skive,56.5667,9.0333,2.87,95,100,0.89,DK,1733305188
8,howard springs,-12.497,131.047,28.95,82,31,3.16,AU,1733305189
9,badger,64.8,-147.5333,-8.13,88,75,2.57,US,1733305190
10,ixtapa,20.7,-105.2,20.68,86,50,1.48,MX,1733305191
11,ribeira grande,38.5167,-28.7,19.87,77,75,5.36,PT,1733305192
12,waitangi,-43.9535,-176.5597,11.57,96,94,3.13,NZ,1733305193
13,garissa,-0.4536,39.6401,33.45,35,5,3.89,KE,1733305194
14,maues,-3.3836,-57.7186,22.78,97,83,1.12,BR,1733305196
15,jamestown,42.097,-79.2353,-4.43,82,20,5.14,US,1733305121
16,puerto ayora,-0.7393,-90.3518,20.31,99,64,1.79,EC,1733305198
17,katsuren-haebaru,26.3369,127.8719,19.49,63,20,3.6,JP,1733305199
18,constantia,44.1833,28.65,3.38,74,100,4.85,RO,1733305200
19,las lomitas,-24.7096,-60.593,18.6,59,100,2.68,AR,1733305201
20,hoemul-li,41.4339,129.67,0.14,37,1,3.39,KP,1733305202
21,tyuratam,45.6507,63.3156,1.59,48,52,3.44,KZ,1733305203
22,idku,31.3078,30.299,19.78,63,12,6.16,EG,1733305204
23,anadyr,64.75,177.4833,-18.72,78,0,2.0,RU,1733305205
24,ushuaia,-54.8,-68.3,2.81,87,100,6.17,AR,1733305206
25,kayangel,8.0823,134.7173,28.88,76,100,3.63,PW,1733305207
26,kerikeri,-35.2268,173.9474,17.17,87,58,1.87,NZ,1733305209
27,mount pearl,47.5166,-52.7813,-2.25,91,20,2.06,CA,1733305210
28,port alfred,-33.5906,26.891,23.99,74,72,2.24,ZA,1733305211
29,port-aux-francais,-49.35,70.2167,4.69,75,8,5.44,TF,1733305212
30,albany,42.6001,-73.9662,-7.43,88,13,1.22,US,1733304917
31,hawaiian paradise park,19.5933,-154.9731,23.73,96,100,2.06,US,1733305214
32,invercargill,-46.4,168.35,15.01,88,76,7.15,NZ,1733305215
33,silver springs,29.1044,-82.0206,3.33,77,0,2.69,US,1733305216
34,happy valley-goose bay,53.3168,-60.3315,-18.83,84,20,2.06,CA,1733305217
35,utrik,11.2278,169.8474,27.48,84,51,8.61,MH,1733305218
36,kodiak,57.79,-152.4072,4.73,93,100,5.14,US,1733304936
37,margate,51.3813,1.3862,5.49,81,87,0.45,GB,1733305220
38,ghanzi,-21.5667,21.7833,37.18,11,67,6.66,BW,1733305222
39,nagqu,31.5,92.0,0.43,12,0,6.29,CN,1733305223
40,bilibino,68.0546,166.4372,-21.67,99,60,1.54,RU,1733305224
41,dunedin,-45.8742,170.5036,16.56,87,88,2.33,NZ,1733305225
42,puerto natales,-51.7236,-72.4875,4.0,87,45,1.08,CL,1733305227
43,callao,-12.0667,-77.15,19.84,88,75,1.54,PE,1733305228
44,vega de alatorre,20.0333,-96.6333,22.26,86,100,2.14,MX,1733305229
45,vorgashor,67.5833,63.95,-3.14,98,100,2.14,RU,1733305230
46,sangonera la verde,37.9286,-1.2079,17.8,59,95,2.24,ES,1733305231
47,papatowai,-46.5619,169.4708,16.72,86,75,6.04,NZ,1733305232
48,curup,-3.4667,102.5333,22.02,96,98,2.25,ID,1733305234
49,new norfolk,-42.7826,147.0587,14.84,75,15,0.94,AU,1733305235
50,la palma,33.8464,-118.0467,13.51,93,100,2.06,US,1733305236
51,bethel,41.3712,-73.414,-4.36,76,10,0.88,US,1733305237
52,sinabang,2.4803,96.3801,26.16,80,100,1.71,ID,1733305238
53,west island,-12.1568,96.8225,29.99,84,20,5.14,CC,1733305239
54,grytviken,-54.2811,-36.5092,0.92,74,96,4.43,GS,1733305240
55,olonkinbyen,70.9221,-8.7187,-0.07,96,100,7.17,SJ,1733305241
56,camocim,-2.9022,-40.8411,26.11,83,84,4.04,BR,1733305229
57,petropavlovsk-kamchatsky,53.0452,158.6483,-2.67,74,75,2.0,RU,1733305243
58,homer,59.6425,-151.5483,7.09,78,100,5.14,US,1733305244
59,saint-leu,-21.15,55.2833,29.48,73,15,2.98,RE,1733305245
60,bam,29.106,58.357,14.61,19,0,4.24,IR,1733305247
61,blackmans bay,-43.0167,147.3167,19.07,86,2,1.93,AU,1733305248
62,richfield,44.8833,-93.283,-0.86,80,100,5.66,US,1733305249
63,marataizes,-21.0433,-40.8244,23.74,90,100,2.1,BR,1733305250
64,manokwari,-0.8667,134.0833,25.76,86,100,0.96,ID,1733305251
65,aldan,58.6031,125.3894,-24.07,100,100,0.49,RU,1733305252
66,bredasdorp,-34.5322,20.0403,26.51,32,100,4.37,ZA,1733305253
67,tiksi,71.6872,128.8694,-24.68,94,51,3.24,RU,1733305254
68,punta arenas,-53.15,-70.9167,5.06,70,0,5.66,CL,1733305255
69,yaren,-0.5472,166.916,28.03,81,19,8.12,NR,1733305256
70,palmas de monte alto,-14.2672,-43.1619,24.88,74,100,1.29,BR,1733305257
71,crane,31.3974,-102.3501,9.23,77,100,5.04,US,1733305258
72,rongelap,11.1635,166.8941,28.15,80,64,7.64,MH,1733305259
73,codrington,-38.2667,141.9667,13.76,77,0,4.39,AU,1733305261
74,bidur,4.1167,101.2833,24.81,93,100,0.79,MY,1733305262
75,kourou,5.1552,-52.6478,24.56,88,45,3.12,GF,1733305038
76,wailua homesteads,22.0669,-159.378,20.48,83,0,3.09,US,1733305264
77,altay,47.8667,88.1167,-10.73,76,11,2.77,CN,1733305265
78,greymouth,-42.4667,171.2,16.81,98,100,6.34,NZ,1733305266
79,puerto deseado,-47.7503,-65.8938,9.29,74,97,8.38,AR,1733305267
80,makeni,8.8833,-12.05,29.17,60,40,0.89,SL,1733305268
81,hasaki,35.7333,140.8333,13.94,64,99,10.14,JP,1733305269
82,kingston,17.997,-76.7936,26.53,74,20,3.6,JM,1733305270
83,nova sintra,14.8667,-24.7167,25.6,55,0,4.29,CV,1733305271
84,guerrero negro,27.9769,-114.0611,15.14,85,0,4.69,MX,1733305273
85,anatuya,-28.4606,-62.8347,14.71,72,0,2.97,AR,1733305274
86,okha,53.5739,142.9478,-19.58,84,5,4.81,RU,1733305275
87,san patricio,28.017,-97.5169,20.97,90,100,3.48,US,1733305276
88,princeton,25.5384,-80.4089,13.34,72,0,5.66,US,1733305277
89,acapulco de juarez,16.8634,-99.8901,24.9,83,40,1.54,MX,1733305278
90,udachny,66.4167,112.4,-29.33,98,24,3.43,RU,1733305279
91,freetown,8.484,-13.2299,28.45,67,99,3.11,SL,1733305280
92,quixere,-5.0742,-37.9886,26.83,71,66,3.63,BR,1733305281
93,edinburgh of the seven seas,-37.0676,-12.3116,17.11,97,100,12.41,SH,1733305283
94,vila franca do campo,37.7167,-25.4333,18.27,99,87,1.7,PT,1733305284
95,port macquarie,-31.4333,152.9167,22.82,92,99,2.24,AU,1733305285
96,rio grande,-32.035,-52.0986,16.71,58,0,1.83,BR,1733305232
97,port elizabeth,-33.918,25.5701,24.62,67,40,4.63,ZA,1733305201
98,ilulissat,69.2167,-51.1,-9.99,62,75,3.6,GL,1733305288
99,vegreville,53.5001,-112.0518,-11.97,74,100,4.63,CA,1733305289
100,madang,-5.2246,145.7966,26.4,88,89,1.28,PG,1733305290
101,stanley,54.868,-1.6985,1.01,96,54,2.06,GB,1733305101
102,bamboo flat,11.7,92.7167,30.05,70,75,4.12,IN,1733305292
103,trunovskoye,45.4878,42.1358,5.21,82,100,6.79,RU,1733305293
104,acarau,-2.8856,-40.12,25.62,84,99,4.03,BR,1733305295
105,fortuna,40.5982,-124.1573,5.51,100,0,3.09,US,1733305296
106,zhigalovo,54.8097,105.1578,-18.34,100,100,1.18,RU,1733305297
107,rabo de peixe,37.8,-25.5833,17.77,99,75,3.09,PT,1733305298
108,kangding,30.0513,101.9603,4.08,94,85,2.39,CN,1733305299
109,cabo san lucas,22.8909,-109.9124,19.86,87,63,2.18,MX,1733305300
110,baidoa,3.1138,43.6498,32.5,26,66,6.98,SO,1733305301
111,chibougamau,49.9168,-74.3659,-16.21,85,20,2.06,CA,1733305302
112,smithers,54.7804,-127.1743,2.18,100,100,1.54,CA,1733305304
113,stornoway,58.2093,-6.3865,3.98,87,20,1.03,GB,1733305305
114,enewetak,11.3474,162.3373,28.17,81,30,7.31,MH,1733305306
115,oak grove,45.4168,-122.6401,3.81,78,0,8.05,US,1733305308
116,bunia,1.5667,30.25,26.39,47,70,2.98,CD,1733305309
117,nova vicosa,-17.8919,-39.3719,26.19,73,88,4.77,BR,1733305310
118,amungan,15.3652,119.9582,27.65,80,100,1.51,PH,1733305311
119,mayahi,13.9553,7.6712,26.16,14,24,7.69,NE,1733305312
120,souillac,-20.5167,57.5167,28.21,69,40,5.14,MU,1733305313
121,afif,23.9065,42.9172,24.11,33,1,5.86,SA,1733305314
122,gerash,27.6652,54.1371,19.08,22,0,1.32,IR,1733305315
123,matoury,4.8483,-52.3317,25.98,83,40,3.09,GF,1733305316
124,fortaleza,-3.7227,-38.5247,26.07,89,75,3.09,BR,1733305084
125,kolondieba,11.0882,-6.8926,30.32,17,3,3.72,ML,1733305318
126,rawa mazowiecka,51.7644,20.2549,4.82,85,100,3.0,PL,1733305320
127,iskateley,67.6803,53.1512,-6.96,95,100,2.13,RU,1733305322
128,urzhar,47.093,81.6294,-1.3,87,71,1.94,KZ,1733305323
129,carbonear,47.7332,-53.2148,-2.03,81,36,4.54,CA,1733305324
130,manta,-0.95,-80.7333,22.88,88,75,5.39,EC,1733305325
131,lihue,21.9789,-159.3672,20.81,83,0,3.09,US,1733305326
132,pampas,-12.4,-74.9,7.45,84,100,1.15,PE,1733305327
133,mwanza,-2.5167,32.9,23.03,78,75,2.06,TZ,1733305328
134,tanabi,-20.6264,-49.6492,22.05,94,100,1.53,BR,1733305329
135,atafu village,-8.5421,-172.5159,28.62,74,100,7.06,TK,1733305330
136,mpika,-11.8343,31.4529,30.06,30,97,1.84,ZM,1733305332
137,thompson,55.7435,-97.8558,-17.91,71,100,7.2,CA,1733305333
138,sampao,7.5939,125.6611,25.26,85,67,3.1,PH,1733305334
139,longyearbyen,78.2186,15.6401,-10.09,73,75,9.26,SJ,1733305335
140,east end,34.5507,-92.341,0.93,84,5,3.03,US,1733305336
141,khandyga,62.6667,135.6,-27.29,100,99,0.69,RU,1733305337
142,rawah,34.4816,41.9093,15.47,35,0,1.79,IQ,1733305338
143,zyryanskoye,56.8306,86.6258,-5.27,91,100,5.87,RU,1733305339
144,sechura,-5.5569,-80.8222,19.66,84,64,2.98,PE,1733305340
145,tazacorte,28.629,-17.9293,21.54,70,75,4.92,ES,1733305341
146,bumba,2.1833,22.4667,33.49,30,36,1.57,CD,1733305344
147,portland,45.5234,-122.6762,4.08,77,0,8.05,US,1733305345
148,tashir,41.1207,44.2846,2.66,57,0,1.67,AM,1733305346
149,weno,7.4515,151.8468,24.97,94,100,3.09,FM,1733305347
150,nago,26.5881,127.9761,18.8,63,0,5.27,JP,1733305348
151,kolokani,13.5728,-8.0339,27.63,13,80,7.32,ML,1733305349
152,hammerfest,70.6634,23.6821,-0.75,93,100,7.2,NO,1733305350
153,port-vila,-17.7338,168.3219,25.78,94,75,1.54,VU,1733305351
154,gudari,19.35,83.7833,30.61,52,23,1.97,IN,1733305352
155,peniche,39.3558,-9.3811,17.34,89,94,5.77,PT,1733305353
156,isafjordur,66.0755,-23.124,-0.98,86,75,2.06,IS,1733305354
157,college,64.8569,-147.8028,-8.08,87,100,2.57,US,1733305356
158,avarua,-21.2078,-159.775,24.03,88,75,4.12,CK,1733305357
159,afaahiti,-17.75,-149.2833,25.49,79,58,5.82,PF,1733305358
160,roma,43.2128,-75.4557,-5.36,92,100,2.57,US,1733305359
161,kapuskasing,49.4169,-82.4331,-10.95,92,100,5.66,CA,1733305360
162,puerto baquerizo moreno,-0.9,-89.6,21.44,88,81,4.86,EC,1733305361
163,dudinka,69.4058,86.1778,-12.61,89,100,8.18,RU,1733305362
164,assai,-23.3733,-50.8414,21.92,93,100,5.79,BR,1733305363
165,la malbaie,47.6575,-70.1559,-4.51,83,99,2.12,CA,1733305364
166,talnakh,69.4865,88.3972,-10.97,94,100,7.73,RU,1733305365
167,saipan,15.1355,145.701,28.39,82,0,5.66,MP,1733305366
168,hermanus,-34.4187,19.2345,22.67,66,100,5.19,ZA,1733305367
169,dryden,49.7833,-92.7503,-7.84,93,100,7.2,CA,1733305369
170,auki,-8.7676,160.7034,25.69,84,78,1.88,SB,1733305370
171,as sulayyil,20.4607,45.5779,27.1,27,5,5.67,SA,1733305371
172,carnarvon,-24.8667,113.6333,23.35,66,1,10.98,AU,1733305372
173,morondava,-20.2833,44.2833,29.78,66,53,6.78,MG,1733305373
174,lebu,-37.6167,-73.65,10.19,87,77,3.93,CL,1733305374
175,kilju,40.9642,129.3278,-2.25,42,0,2.04,KP,1733305375
176,mejit,10.2753,170.8646,27.86,82,14,8.39,MH,1733305376
177,bardsir,29.9227,56.5743,14.85,7,0,4.37,IR,1733305377
178,tangalle,6.024,80.7911,28.79,65,33,3.33,LK,1733305378
179,hamilton,39.1834,-84.5333,-4.94,85,0,4.63,US,1733304866
180,undurkhaan,47.3194,110.6556,-7.67,63,100,3.35,MN,1733305380
181,carutapera,-1.195,-46.02,27.02,76,67,3.35,BR,1733305382
182,talcahuano,-36.7167,-73.1167,9.82,87,0,5.14,CL,1733305383
183,along,28.1667,94.7667,18.46,55,1,0.25,IN,1733305384
184,tete,-16.1564,33.5867,35.05,34,40,1.03,MZ,1733305385
185,egilsstadir,65.2653,-14.3948,1.95,55,20,4.63,IS,1733305386
186,queenstown,-31.8976,26.8753,26.62,39,38,3.27,ZA,1733305387
187,pionerskiy,54.9508,20.2275,0.91,98,100,9.17,RU,1733305388
188,matabhanga,26.3333,89.2167,25.3,38,1,1.01,IN,1733305389
189,castelli,-25.9468,-60.6195,16.84,71,100,1.84,AR,1733305390
190,aleg,17.0481,-13.9209,28.31,10,100,3.58,MR,1733305391
191,vallenar,-28.5708,-70.7581,15.28,59,0,0.66,CL,1733305392
192,taraz,42.9,71.3667,3.23,75,51,2.0,KZ,1733305393
193,port lincoln,-34.7333,135.8667,19.23,60,0,2.11,AU,1733305395
194,villiers,-27.0303,28.6006,34.54,9,0,8.49,ZA,1733305132
195,poxoreo,-15.8372,-54.3892,22.25,94,100,0.66,BR,1733305397
196,otradnaya,44.3933,41.5206,3.73,68,1,2.33,RU,1733305196
197,kirensk,57.7853,108.1119,-16.61,99,97,1.21,RU,1733305400
198,port mathurin,-19.6833,63.4167,25.02,72,14,7.57,MU,1733305401
199,kirundo,-2.5833,30.1667,22.59,74,33,2.73,BI,1733305402
200,salaga,8.5508,-0.5188,32.69,14,4,3.83,GH,1733305403
201,brezina,33.0989,1.2608,16.63,33,61,5.29,DZ,1733305405
202,al jawf,29.5,38.75,17.81,37,51,1.85,SA,1733305406
203,fort abbas,29.1925,72.8536,26.71,15,0,3.71,PK,1733305407
204,tsiombe,-25.3,45.4833,36.65,31,1,4.87,MG,1733305408
205,sergeyevka,53.88,67.4158,-6.53,94,57,4.78,KZ,1733305409
206,hastings,50.8552,0.5729,6.77,51,96,4.75,GB,1733305410
207,kununurra,-15.7667,128.7333,28.99,74,96,2.06,AU,1733305172
208,harper,4.375,-7.7169,28.37,73,66,1.77,LR,1733305412
209,jaggayyapeta,16.9,80.1,31.73,54,49,2.83,IN,1733305413
210,nezhinka,51.7676,55.3694,-3.91,93,100,3.0,RU,1733305414
211,santo antonio do ica,-3.1022,-67.9397,23.22,99,100,0.74,BR,1733305415
212,ternate,0.8,127.4,27.83,79,76,4.49,ID,1733305417
213,kandalaksha,67.162,32.4123,-10.61,92,17,1.34,RU,1733305419
214,medina,24.4686,39.6142,24.24,31,0,2.57,SA,1733305420
215,vilyuysk,63.7553,121.6247,-31.23,98,59,2.1,RU,1733305421
216,kasempa,-13.4584,25.8338,32.63,16,99,1.91,ZM,1733305422
217,remire-montjoly,4.9167,-52.2667,26.02,83,40,3.09,GF,1733305423
218,pisco,-13.7,-76.2167,19.03,88,100,2.06,PE,1733305424
219,devils lake,48.1128,-98.8651,-3.01,84,100,10.29,US,1733305221
220,tosontsengel,48.7567,98.2839,-17.99,98,50,1.31,MN,1733305426
221,nuuk,64.1835,-51.7216,-3.66,86,100,2.57,GL,1733305427
222,solnechnyy,50.7214,136.6319,-21.82,93,100,1.39,RU,1733305430
223,jinchang,38.4953,102.1739,-1.42,53,0,2.07,CN,1733305432
224,whitehorse,60.7161,-135.0538,-2.77,93,40,12.86,CA,1733305146
225,cockburn town,21.4612,-71.1419,24.66,82,100,13.47,TC,1733305302
226,khovd,48.0056,91.6419,-11.55,80,3,0.34,MN,1733305435
227,hithadhoo,-0.6,73.0833,27.66,77,41,7.23,MV,1733305436
228,la belgica,-17.55,-63.2167,20.16,88,75,2.06,BO,1733305437
229,coquimbo,-29.9533,-71.3436,11.85,94,20,2.06,CL,1733305438
230,colonia,50.9333,6.95,5.53,89,75,1.54,DE,1733305439
231,amga,60.8953,131.9608,-22.77,97,99,1.64,RU,1733305440
232,karamursel,40.6914,29.6157,10.51,87,100,1.01,TR,1733305442
233,masvingo,-20.0637,30.8277,34.03,15,0,2.06,ZW,1733305443
234,geraldton,-28.7667,114.6,24.23,60,8,7.2,AU,1733305445
235,borba,-4.3878,-59.5939,23.54,92,74,1.21,BR,1733305446
236,georgetown,5.4112,100.3354,29.96,74,20,3.6,MY,1733305447
237,klyuchi,52.2667,79.1667,-7.79,87,83,3.66,RU,1733305448
238,qaqortoq,60.7167,-46.0333,-11.26,85,39,3.38,GL,1733305449
239,trairi,-3.2778,-39.2689,26.51,78,52,3.63,BR,1733305212
240,laminusa,5.5549,120.9136,29.05,73,97,3.01,PH,1733305452
241,malango,-2.9627,119.9001,21.76,96,99,0.57,ID,1733305453
242,sandnessjoen,66.0217,12.6316,1.06,32,0,5.66,NO,1733305454
243,thinadhoo,0.5333,72.9333,27.84,76,59,6.61,MV,1733305455
244,palu,-0.8917,119.8707,25.47,98,100,1.13,ID,1733305456
245,aswan,24.0934,32.907,20.61,32,0,3.6,EG,1733305457
246,gadzhiyevo,69.2551,33.3362,-9.5,88,34,5.49,RU,1733305458
247,belene,43.65,25.1167,6.99,67,100,1.81,BG,1733305459
248,al kharj,24.155,47.3346,23.32,24,0,5.73,SA,1733305460
249,riberalta,-10.9833,-66.1,22.47,98,100,0.94,BO,1733305461
250,east london,-33.0153,27.9116,24.52,60,20,3.6,ZA,1733305206
251,skowhegan,44.7651,-69.7192,-7.39,94,99,0.89,US,1733305463
252,sunland park,31.7965,-106.58,11.56,77,0,2.57,US,1733305465
253,amble,55.3333,-1.5833,4.08,93,43,3.6,GB,1733305466
254,machico,32.7,-16.7667,20.4,73,40,4.63,PT,1733305467
255,tartu,58.3806,26.7251,-2.86,82,3,1.03,EE,1733305468
256,chonchi,-42.6128,-73.8092,11.18,96,98,0.91,CL,1733305469
257,okhotsk,59.3833,143.3,-3.67,88,100,3.45,RU,1733305470
258,alo,6.5486,4.2686,32.11,45,63,0.97,NG,1733305471
259,aasiaat,68.7098,-52.8699,-12.58,92,100,2.6,GL,1733305472
260,nemuro,43.3236,145.575,1.04,69,26,6.66,JP,1733305473
261,oeiras do para,-2.0031,-49.8544,23.98,96,100,0.85,BR,1733305474
262,kolonia,50.9333,6.95,5.53,89,75,1.54,DE,1733305475
263,uliastay,47.7417,96.8444,-13.69,78,14,2.26,MN,1733305476
264,salahonda,2.1019,-78.7217,24.94,85,98,4.7,CO,1733305479
265,minab,27.1467,57.0801,26.18,14,0,0.98,IR,1733305480
266,ancud,-41.8697,-73.8203,10.75,89,100,1.27,CL,1733305481
267,fukuecho,32.6881,128.8419,10.2,62,75,2.57,JP,1733305482
268,peniscola,40.3359,0.3613,13.64,58,95,5.06,ES,1733305483
269,namibe,-15.1961,12.1522,24.4,70,25,3.66,AO,1733305484
270,stephenville,32.2207,-98.2023,12.07,60,100,2.24,US,1733305485
271,selfoss,63.9331,-20.9971,-0.53,92,92,3.49,IS,1733305486
272,vadso,70.0744,29.7487,-5.91,79,20,5.66,NO,1733305487
273,bonthe,7.5264,-12.505,28.29,71,30,1.33,SL,1733305489
274,tazovsky,67.4667,78.7,-11.02,93,25,4.45,RU,1733305491
275,inhambane,-23.865,35.3833,30.99,62,20,9.26,MZ,1733305492
276,al mayadin,35.0209,40.4535,15.96,38,0,3.41,SY,1733305493
277,tura,25.5198,90.2201,21.65,58,4,2.12,IN,1733305494
278,biltine,14.5333,20.9167,29.89,12,9,2.53,TD,1733305495
279,hilo,19.7297,-155.09,23.85,92,100,2.06,US,1733305408
280,pszow,50.0399,18.3947,2.96,87,99,0.81,PL,1733305497
281,luwingu,-10.2621,29.9271,28.18,44,96,1.68,ZM,1733305498
282,baihe,22.15,107.2333,23.52,56,28,1.28,CN,1733305499
283,luderitz,-26.6481,15.1594,22.69,56,20,10.06,NA,1733305500
284,medeiros neto,-17.3739,-40.2206,23.84,78,82,1.84,BR,1733305501
285,sarkikaraagac,38.0794,31.3664,7.65,81,86,2.13,TR,1733305503
286,almenara,-16.1836,-40.6944,23.09,88,100,1.42,BR,1733305226
287,lusambo,-4.9667,23.45,25.93,71,99,2.04,CD,1733305505
288,lompoc,34.6391,-120.4579,8.23,100,100,1.54,US,1733305506
289,alice springs,-23.7,133.8833,32.75,38,40,3.6,AU,1733305507
290,askoy,60.4092,5.226,3.16,38,40,7.2,NO,1733305508
291,sao felix do xingu,-6.6447,-51.995,22.31,99,100,0.46,BR,1733305509
292,mahalapye,-23.1041,26.8142,38.92,9,1,4.61,BW,1733305510
293,ballina,-28.8667,153.5667,24.08,91,97,6.1,AU,1733305511
294,molde,62.7375,7.1591,-3.09,86,0,3.6,NO,1733305512
295,taskent,41.2646,69.2163,1.97,93,100,1.03,UZ,1733305470
296,al hada,21.3675,40.2869,21.66,60,42,4.54,SA,1733305515
297,novyy urengoy,66.0833,76.6333,-10.03,95,61,3.65,RU,1733305516
298,barvinkove,48.9097,37.0205,2.23,75,99,4.67,UA,1733305517
299,stara zagora,42.4328,25.6419,7.87,73,88,1.01,BG,1733305518
300,wenceslau braz,-23.8739,-49.8028,18.08,95,100,5.79,BR,1733305519
301,pinarhisar,41.6242,27.52,8.15,82,100,2.78,TR,1733305520
302,newman,37.3138,-121.0208,10.55,63,2,1.13,US,1733305521
303,keflavik,64.0049,-22.5624,1.24,86,75,3.6,IS,1733305522
304,anar darah,32.7587,61.654,14.67,23,6,1.77,AF,1733305523
305,moussoro,13.6408,16.4901,28.27,13,3,5.72,TD,1733305524
306,tinogasta,-28.0632,-67.5649,17.44,63,0,1.85,AR,1733305525
307,bardai,11.65,7.2333,24.38,16,57,7.56,NG,1733305526
308,ust-nera,64.5667,143.2,-19.83,99,99,0.25,RU,1733305527
309,gisborne,-38.6533,178.0042,17.64,77,53,2.51,NZ,1733305529
310,strezhevoy,60.7333,77.5889,0.17,95,100,4.16,RU,1733305530
311,lokhvytsya,50.3678,33.2602,0.11,78,9,1.95,UA,1733305532
312,brak,27.5496,14.2714,18.07,31,81,0.84,LY,1733305533
313,berezovyy,51.6667,135.7,-25.86,100,100,1.39,RU,1733305534
314,bayganin,48.6947,55.8742,-0.26,66,94,1.67,KZ,1733305535
315,kidal,18.4411,1.4078,25.15,13,97,6.7,ML,1733305536
316,timbuktu,16.7735,-3.0074,25.87,11,100,5.95,ML,1733305537
317,nikolayevsk-on-amure,53.1406,140.73,-26.38,98,14,1.47,RU,1733305538
318,maintirano,-18.0667,44.0167,29.68,60,32,6.07,MG,1733305541
319,santa catarina mita,14.45,-89.75,15.83,87,100,3.69,GT,1733305544
320,karratha,-20.7377,116.8463,29.29,53,2,10.83,AU,1733305545
321,riosucio,5.4216,-75.7032,15.85,99,98,0.32,CO,1733305546
322,yasnyy,51.0333,59.8742,-3.96,96,84,3.91,RU,1733305547
323,caohe,30.2297,115.4335,12.67,68,82,4.85,CN,1733305551
324,atherton,53.5237,-2.4935,5.25,97,55,0.45,GB,1733305552
325,arraial do cabo,-22.9661,-42.0278,23.92,94,40,3.6,BR,1733305553
326,amparafaravola,-17.5833,48.2167,27.44,49,100,2.82,MG,1733305555
327,nouadhibou,20.931,-17.0347,19.99,37,0,4.12,MR,1733305556
328,lospalos,-8.5186,127.0025,24.49,84,100,0.17,TL,1733305557
329,moratalla,38.1893,-1.8918,12.22,67,69,10.56,ES,1733305558
330,tumayr,25.7039,45.868,25.99,25,7,7.73,SA,1733305559
331,coronel dorrego,-38.7187,-61.2873,16.23,42,4,7.16,AR,1733305560
332,mount gambier,-37.8333,140.7667,14.48,84,0,2.04,AU,1733305562
333,tapes,-30.6733,-51.3958,18.23,63,5,2.37,BR,1733305480
334,ebon,4.582,168.6964,28.75,78,11,7.64,MH,1733305564
335,arhribs,36.7936,4.3116,11.23,97,100,2.66,DZ,1733305565
336,yorkton,51.2167,-102.4677,-15.09,78,100,10.29,CA,1733305566
337,miri,4.4148,114.0089,30.08,74,40,1.03,MY,1733305567
338,natal,-5.795,-35.2094,27.36,83,75,4.12,BR,1733305298
339,maisi,43.0395,41.2621,9.71,44,0,1.01,GE,1733305569
340,kongwa,-6.2,36.4167,27.22,49,66,3.99,TZ,1733305570
341,papao,-17.75,-149.55,24.82,75,28,6.24,PF,1733305571
342,chu,43.5983,73.7614,6.5,54,4,0.15,KZ,1733305572
343,williams lake,52.1415,-122.1445,1.76,94,100,4.12,CA,1733305573
344,solok,-0.7918,100.6593,23.31,82,99,2.08,ID,1733305575
345,kapa'a,22.0752,-159.319,21.22,83,0,3.09,US,1733305576
346,poso,-1.3959,120.7524,27.5,82,100,0.71,ID,1733305577
347,cozumel,20.5083,-86.9458,23.19,58,96,7.91,MX,1733305497
348,sanibel,26.449,-82.0223,8.9,78,0,2.68,US,1733305579
349,srivardhan,18.0333,73.0167,30.22,62,78,4.49,IN,1733305580
350,shiguai,40.7058,110.2856,-2.98,65,38,5.14,CN,1733305581
351,ostseebad binz,54.3999,13.6105,3.96,96,99,8.86,DE,1733305582
352,ciudad bolivar,8.1222,-63.5497,23.67,91,66,3.25,VE,1733305583
353,lata,40.1629,-8.3327,12.15,83,100,1.95,PT,1733305584
354,feodosiya,45.0333,35.3833,6.86,71,66,4.66,UA,1733305585
355,port blair,11.6667,92.75,30.02,70,75,4.12,IN,1733305331
356,slonim,53.0867,25.3219,1.83,83,85,2.37,BY,1733305588
357,ugoofaaru,5.6667,73.0,27.98,68,85,4.67,MV,1733305589
358,antalaha,-14.9003,50.2788,28.33,63,18,4.45,MG,1733305590
359,borodinskiy,53.9986,37.8179,-2.01,88,98,3.44,RU,1733305591
360,chipiona,36.7366,-6.437,15.12,82,75,6.17,ES,1733305592
361,fort bragg,35.139,-79.006,-4.0,78,0,0.0,US,1733305593
362,melfort,52.8667,-104.6177,-15.93,78,100,6.69,CA,1733305594
363,kavieng,-2.5744,150.7967,28.25,78,29,5.91,PG,1733305595
364,ruelle-sur-touvre,45.6833,0.2333,2.37,100,100,1.54,FR,1733305596
365,aland,17.5667,76.5667,28.8,50,76,2.4,IN,1733305597
366,shache,38.4167,77.2406,5.78,26,0,2.05,CN,1733305598
367,sitka,57.0531,-135.33,6.94,100,75,1.54,US,1733305600
368,chegdomyn,51.1167,133.0167,-22.75,99,100,0.77,RU,1733305601
369,zakamensk,50.3741,103.2863,-12.06,92,100,0.38,RU,1733305602
370,gharyan,32.1722,13.0203,17.36,37,1,6.07,LY,1733305603
371,champerico,14.3,-91.9167,24.21,68,49,2.72,GT,1733305604
372,tarawa,1.419,172.984,29.05,74,20,5.14,KI,1733305605
373,la'ie,21.6477,-157.9253,22.98,79,63,2.5,US,1733305606
374,cidreira,-30.1811,-50.2056,19.45,57,25,2.92,BR,1733305607
375,dadukou,26.5479,101.7054,16.34,59,16,0.94,CN,1733305608
376,muisne,0.6,-80.0333,23.58,85,100,4.49,EC,1733305609
377,qoryooley,1.7878,44.53,34.27,31,36,6.15,SO,1733305612
378,manay,7.215,126.5397,25.18,86,96,3.46,PH,1733305613
379,suva,-18.1416,178.4415,25.71,100,75,0.0,FJ,1733305615
380,idabel,33.8957,-94.8263,1.97,93,100,2.57,US,1733305616
381,neuenhof,47.45,8.3167,4.94,93,75,3.6,CH,1733305617
382,bodo,67.28,14.405,0.02,59,0,8.23,NO,1733305618
383,soio,-6.1349,12.3689,25.25,86,100,3.77,AO,1733305619
384,soc trang,9.6033,105.98,24.58,93,98,2.62,VN,1733305620
385,labytnangi,66.6572,66.4183,-8.27,96,100,0.69,RU,1733305622
386,filingue,14.3521,3.3168,27.06,11,57,7.3,NE,1733305623
387,el granada,37.5027,-122.4694,13.53,70,0,1.54,US,1733305624
388,zouerate,22.7187,-12.4521,21.04,18,100,5.35,MR,1733305537
389,qamdo,31.1667,97.2333,3.38,21,20,2.59,CN,1733305626
390,uturoa,-16.7333,-151.4333,27.45,76,72,5.73,PF,1733305627
391,murghob,38.1702,73.9667,-12.26,56,8,1.74,TJ,1733305628
392,kralendijk,12.15,-68.2667,25.99,89,75,6.17,BQ,1733305629
393,kovdor,67.5662,30.4758,-14.05,92,21,2.21,RU,1733305630
394,bel ombre,-4.6167,55.4167,27.91,74,75,4.63,SC,1733305631
395,minas de marcona,-15.2119,-75.1103,14.9,89,98,3.08,PE,1733305632
396,kristiansund,63.1115,7.732,0.36,51,0,4.12,NO,1733305634
397,westhill,57.1526,-2.2797,0.11,93,47,1.54,GB,1733305635
398,axim,4.8699,-2.2405,29.87,63,52,0.53,GH,1733305636
399,ola,59.5833,151.2833,-9.79,75,28,4.53,RU,1733305637
400,chos malal,-37.3781,-70.2709,14.19,33,0,3.06,AR,1733305638
401,labrador city,52.9463,-66.9114,-16.05,85,100,1.03,CA,1733305382
402,pangkalpinang,-2.1333,106.1333,29.82,66,100,1.2,ID,1733305640
403,sao gabriel da cachoeira,-0.1303,-67.0892,22.16,99,100,0.45,BR,1733305641
404,kenai,60.5544,-151.2583,3.41,89,100,5.66,US,1733305516
405,lobujya,27.95,86.8167,-7.49,35,0,2.87,NP,1733305644
406,brookings,44.3114,-96.7984,0.66,88,100,6.69,US,1733305646
407,pantai remis,4.4557,100.6288,28.01,93,100,0.63,MY,1733305647
408,grand baie,-20.0182,57.5802,29.13,67,9,3.58,MU,1733305648
409,vacaria,-28.5122,-50.9339,12.71,86,99,3.17,BR,1733305649
410,yuzhno-kurilsk,44.0306,145.8556,1.01,83,96,3.34,RU,1733305650
411,bubaque,11.2833,-15.8333,26.67,42,100,4.06,GW,1733305651
412,belyy yar,53.6039,91.3903,-1.06,74,40,5.0,RU,1733305652
413,kailua-kona,19.6406,-155.9956,23.98,79,0,1.54,US,1733305653
414,ketchikan,55.3422,-131.6461,9.87,93,100,6.69,US,1733305654
415,shalkar,47.8288,59.6258,0.13,63,60,0.44,KZ,1733305655
416,kill devil hills,36.0307,-75.676,3.88,58,0,2.06,US,1733305656
417,usogorsk,63.4106,48.6872,0.38,99,100,1.86,RU,1733305657
418,dalandzadgad,43.5708,104.425,-6.7,77,4,4.61,MN,1733305646
419,porangatu,-13.4408,-49.1486,23.72,83,100,0.86,BR,1733305660
420,pasighat,28.0667,95.3333,21.25,51,3,0.8,IN,1733305661
421,wenchang,30.904,118.4887,12.08,62,100,5.16,CN,1733305662
422,lawas,13.764,121.0566,26.89,84,98,3.32,PH,1733305664
423,malanville,11.8685,3.3899,28.05,14,30,6.37,BJ,1733305665
424,praia da vitoria,38.7333,-27.0667,17.14,88,20,3.21,PT,1733305666
425,naxos,37.1056,25.3764,16.15,32,40,2.57,GR,1733305667
426,muntok,-2.0667,105.1833,29.09,67,99,0.84,ID,1733305668
427,susuman,62.7833,148.1667,-18.5,100,100,0.95,RU,1733305669
428,iquique,-20.2208,-70.1431,17.94,79,100,0.84,CL,1733305659
429,san andres,12.5847,-81.7006,27.01,89,40,8.75,CO,1733305672
430,brumadinho,-20.1433,-44.1997,21.66,93,100,0.99,BR,1733305399
431,fort mcmurray,56.7268,-111.381,-21.23,77,75,4.12,CA,1733305674
432,olyokminsk,60.3736,120.4264,-30.61,99,80,0.69,RU,1733305675
433,cheremukhovo,60.3484,59.9851,-1.79,85,15,2.64,RU,1733305676
434,bandarbeyla,9.4942,50.8122,27.61,56,0,10.56,SO,1733305677
435,la bresse,47.9997,6.865,0.66,84,82,1.16,FR,1733305678
436,berdigestyakh,62.0989,126.6992,-30.45,97,30,1.86,RU,1733305664
437,miramar beach,30.3744,-86.3586,2.99,72,4,3.71,US,1733305680
438,motca,47.25,26.6167,0.88,82,100,1.47,RO,1733305681
439,kone,-21.0595,164.8658,26.63,72,100,0.75,NC,1733305682
440,ambatondrazaka,-17.8333,48.4167,28.17,45,98,1.43,MG,1733305685
441,chokwe,-24.5333,32.9833,39.76,16,70,2.52,MZ,1733305686
442,oppdal,62.5943,9.6912,-10.22,64,84,6.52,NO,1733305415
443,kingsville,27.5159,-97.8561,15.14,100,100,0.0,US,1733305688
444,port moresby,-9.4431,147.1797,25.68,94,75,2.06,PG,1733305689
445,ust'-ilimsk,58.0006,102.6619,-19.3,100,82,2.02,RU,1733305690
446,khash,28.2211,61.2158,17.8,25,0,2.96,IR,1733305691
447,fort st. john,56.2499,-120.8529,-13.06,78,100,7.72,CA,1733305692
448,sampit,-2.5333,112.95,25.27,96,100,1.05,ID,1733305693
449,palopo,-2.9996,120.1921,25.96,90,100,0.93,ID,1733305695
450,tanumah,27.1,44.1333,22.8,32,27,4.21,SA,1733305696
451,illapel,-31.6308,-71.1653,11.43,79,0,1.35,CL,1733305697
452,kamloops,50.6665,-120.3192,-0.45,86,100,2.06,CA,1733305698
453,laguna,38.421,-121.4238,7.25,93,0,2.57,US,1733305682
454,narvik,68.4384,17.4272,-1.77,90,98,2.95,NO,1733305700
455,dokkum,53.3222,5.997,5.55,93,100,0.51,NL,1733305701
456,bikenibeu village,1.3673,173.1241,28.98,74,20,5.14,KI,1733305702
457,robertsport,6.7533,-11.3686,27.76,73,86,1.54,LR,1733305703
458,sabaudia,41.3003,13.0282,13.28,70,100,4.82,IT,1733305704
459,kruisfontein,-34.0033,24.7314,26.09,38,74,4.59,ZA,1733305705
460,jayapura,-2.5333,140.7,26.66,88,94,0.49,ID,1733305707
461,sarria,42.7815,-7.4143,9.7,95,90,0.79,ES,1733305708
462,san felipe,10.3399,-68.7425,21.44,96,97,0.7,VE,1733305709
463,yabelo,4.8833,38.0833,23.48,32,14,5.35,ET,1733305710
464,amahai,-3.3333,128.9167,27.37,82,100,2.08,ID,1733305711
465,necochea,-38.5473,-58.7368,13.26,57,0,5.48,AR,1733305503
466,saint-pierre,-21.3393,55.4781,29.82,54,20,4.63,RE,1733305713
467,pontalina,-17.525,-49.4472,20.65,99,100,0.58,BR,1733305714
468,san antonio de pale,-1.4014,5.6325,25.72,82,100,2.56,GQ,1733305715
469,dauphin,51.1494,-100.0502,-12.92,66,100,10.29,CA,1733305716
470,hadibu,12.65,54.0333,26.79,61,15,6.55,YE,1733305717
471,zheleznodorozhnyy,55.7503,38.0042,0.05,97,100,2.81,RU,1733305718
472,bengkulu,-3.8004,102.2655,26.09,87,71,4.14,ID,1733305720
473,salinas,36.6777,-121.6555,13.77,76,0,2.06,US,1733305541
474,iwaki,37.05,140.8833,8.76,67,30,5.66,JP,1733305722
475,la passe,45.5549,-0.8967,7.93,67,30,1.82,FR,1733305723
476,nogliki,51.8333,143.1667,-19.94,95,63,2.92,RU,1733305724
477,istgah-e rah ahan-e garmsar,35.2346,52.3094,10.46,27,0,1.15,IR,1733305725
478,choma,-16.8065,26.9531,33.31,13,24,3.14,ZM,1733305726
479,quellon,-43.1167,-73.6167,10.77,92,100,2.93,CL,1733305727
480,axminster,50.7826,-2.9979,6.79,96,81,3.05,GB,1733305729
481,caleta de carquin,-11.0925,-77.6267,19.58,89,100,3.04,PE,1733305731
482,lai chau,22.3997,103.4517,18.44,81,10,0.95,VN,1733305732
483,mount carmel,38.4109,-87.7614,-0.03,78,21,6.52,US,1733305733
484,mahina,-17.5065,-149.489,24.87,78,0,1.03,PF,1733305734
485,hirara,24.8,125.2833,22.15,73,75,9.26,JP,1733305735
486,sayla,22.55,71.4667,31.23,24,6,5.0,IN,1733305736
487,beyneu,45.3167,55.2,3.79,61,31,4.17,KZ,1733305737
488,fergus falls,46.283,-96.0776,1.4,95,100,7.2,US,1733305738
489,karasburg,-28.0167,18.75,28.2,15,0,3.62,NA,1733305739
490,illushi,6.6667,6.6308,32.29,21,38,2.58,NG,1733305740
491,mabaruma,8.2,-59.7833,21.35,100,63,0.36,GY,1733305743
492,palmer,42.1584,-72.3287,-4.5,74,0,3.09,US,1733305744
493,kuvshinovo,57.0295,34.1725,-3.03,82,74,2.71,RU,1733305745
494,tarija,-21.5355,-64.7296,12.33,88,100,1.47,BO,1733305529
495,al ghayzah,16.2079,52.176,27.59,32,4,4.59,YE,1733305747
496,murphysboro,37.7645,-89.3351,2.3,63,100,6.17,US,1733305748
497,phan rang-thap cham,11.5667,108.9833,24.37,92,90,3.86,VN,1733305749
498,humaita,-7.5061,-63.0208,23.35,98,100,0.87,BR,1733305750
499,nizhnekamsk,55.6366,51.8245,-1.56,93,100,9.0,RU,1733305751
500,mar del plata,-38.0023,-57.5575,14.18,81,0,0.45,AR,1733305419
501,ko lanta,7.5336,99.0865,24.99,86,100,4.36,TH,1733305754
502,cold lake,54.4502,-110.2017,-20.03,77,40,4.12,CA,1733305755
503,marsa alam,25.0757,34.8918,22.35,43,0,5.89,EG,1733305756
504,kemin,42.7846,75.6892,3.12,61,8,0.88,KG,1733305757
505,buon ma thuot,12.6667,108.05,22.54,80,97,3.52,VN,1733305758
506,santa cruz,-17.8,-63.1667,19.7,88,75,3.09,BO,1733305759
507,agnibilekrou,7.1344,-3.2047,31.64,24,6,2.05,CI,1733305760
508,peace river,56.2501,-117.286,-14.08,96,100,4.12,CA,1733305747
509,tutoia,-2.7619,-42.2744,26.07,82,98,4.02,BR,1733305519
510,itoman,26.1247,127.6694,21.01,52,20,5.14,JP,1733305763
511,taco pozo,-25.6167,-63.2833,16.15,64,97,1.47,AR,1733305764
512,barreirinhas,-2.7469,-42.8264,26.4,80,95,2.65,BR,1733305766
513,nyurba,63.2842,118.3319,-30.83,98,48,1.9,RU,1733305767
514,chui,-33.6971,-53.4616,13.16,65,0,2.54,UY,1733305768
515,st. john's,47.5649,-52.7093,-1.79,85,20,2.06,CA,1733305769
516,izazi,-7.2,35.7333,32.51,38,51,3.28,TZ,1733305770
517,vorkuta,67.5,64.0,-2.74,98,100,2.54,RU,1733305771
518,massenya,11.4039,16.1705,30.04,13,2,3.8,TD,1733305772
519,forster,-32.1667,152.5167,22.43,94,96,3.13,AU,1733305773
520,gillette,44.2911,-105.5022,0.62,56,0,6.17,US,1733305774
521,ingeniero guillermo n. juarez,-23.9,-61.85,19.36,54,100,1.67,AR,1733305775
522,nanao,37.05,136.9667,7.39,74,89,2.52,JP,1733305776
523,rivera,-30.9053,-55.5508,14.06,99,0,3.29,UY,1733305596
524,covington,39.0837,-84.5086,-4.29,86,0,4.63,US,1733305779
525,carepa,7.7585,-76.6525,24.88,100,75,1.54,CO,1733305780
526,borzna,51.2546,32.4269,-0.07,82,31,1.66,UA,1733305781
527,nantucket,41.2835,-70.0995,1.06,75,100,7.55,US,1733305771
528,basse-terre,16.1667,-61.6667,23.11,82,22,4.03,GP,1733305783
529,zanjan,36.6736,48.4787,7.83,29,0,5.14,IR,1733305784
530,chiquinquira,5.6164,-73.8175,8.57,97,42,1.04,CO,1733305785
531,sete lagoas,-19.4658,-44.2467,21.04,89,100,0.9,BR,1733305786
532,valencia,39.3333,-0.8333,14.67,54,95,4.98,ES,1733305615
533,coraopolis,40.5184,-80.1667,-3.37,85,75,2.57,US,1733305788
534,burlington,39.8835,-74.6413,-4.95,80,0,1.54,US,1733305542
535,claveria,18.6074,121.0832,24.91,93,99,6.37,PH,1733305791
536,manadhoo,5.7667,73.3833,27.81,68,93,4.86,MV,1733305792
537,shumikha,55.2261,63.2961,-4.74,96,22,2.47,RU,1733305794
538,buka,40.8108,69.1986,9.66,43,14,1.15,UZ,1733305795
539,mandera,3.9366,41.867,33.78,24,21,6.5,KE,1733305796
540,maxixe,-23.8597,35.3472,30.9,62,20,9.39,MZ,1733305797
541,grafton,42.207,-71.6856,-2.86,81,0,4.63,US,1733305799
542,coyuca de catalan,18.3333,-100.65,19.95,52,72,0.52,MX,1733305800
543,ust'-barguzin,53.45,108.9833,-10.22,73,88,1.95,RU,1733305801
544,avesta,60.1455,16.1679,-8.82,99,95,0.33,SE,1733305802
545,tateyama,34.9833,139.8667,15.34,75,84,7.25,JP,1733305803
546,holualoa,19.6228,-155.9522,21.91,82,0,1.54,US,1733305804
547,beitbridge,-22.2167,30.0,39.27,13,47,2.59,ZW,1733305805
548,pandan,14.0453,124.1694,26.3,89,70,4.17,PH,1733305807
549,dhuusamarreeb,5.535,46.3861,32.1,25,59,7.83,SO,1733305808
550,mo i rana,66.3128,14.1428,-12.74,92,0,1.03,NO,1733305809
551,severoural'sk,60.1533,59.952,0.74,72,49,5.06,RU,1733305810
552,ribeira brava,32.65,-17.0667,20.4,63,10,2.54,PT,1733305811
553,abu dhabi,24.4667,54.3667,27.06,32,0,3.6,AE,1733305812
554,sirkazhi,11.2333,79.7333,29.37,69,90,2.86,IN,1733305813
555,sosnovyy bor,59.9,29.1167,0.39,67,6,4.1,RU,1733305717
556,fuling,29.7022,107.3919,12.57,96,100,1.08,CN,1733305816
557,sarkand,45.41,79.9186,-2.24,91,53,1.61,KZ,1733305817
558,port-gentil,-0.7193,8.7815,24.98,94,75,2.57,GA,1733305818
559,ruscova,47.7883,24.2808,2.18,77,100,0.72,RO,1733305819
560,magadan,59.5667,150.8,-7.84,70,43,4.84,RU,1733305820
561,mili,6.0815,171.735,28.25,78,99,7.56,MH,1733305821
562,manbij,36.5281,37.9549,11.6,44,100,4.34,SY,1733305824
563,korla,41.7597,86.1469,2.61,53,13,1.8,CN,1733305825
564,mozarlandia,-14.7447,-50.5706,22.98,92,100,1.11,BR,1733305826
565,notodden,59.5594,9.2585,-8.08,86,0,0.0,NO,1733305827
566,medicine hat,50.0501,-110.6683,-1.55,87,100,1.34,CA,1733305828
567,vilyuchinsk,52.9306,158.4028,-1.85,89,100,0.84,RU,1733305829
568,da nang,16.0678,108.2208,25.99,78,20,2.57,VN,1733305830
569,xichang,27.8964,102.2634,12.59,67,95,1.3,CN,1733305831
570,sogndal,61.2283,7.1003,-1.79,39,0,3.6,NO,1733305833
571,cefalu,38.0386,14.0229,16.53,61,27,1.79,IT,1733305834
572,san felice circeo,41.2372,13.0942,14.9,68,99,4.79,IT,1733305835
573,fes,34.0372,-4.9998,14.14,94,75,3.09,MA,1733305553
574,kodinsk,58.6881,99.1844,-11.72,96,100,1.44,RU,1733305838
575,new plymouth,-39.0667,174.0833,18.23,100,67,3.66,NZ,1733305840
576,harstad,68.799,16.5293,-2.14,95,87,3.13,NO,1733305842
577,tubarjal,30.4999,38.216,17.83,36,0,0.55,SA,1733305843
